Type,Name,Latitude,Longitude
Beaches,,57.1085543,12.2418697
Beaches,Fyns Nordligste Punkt,55.6227199,10.3007019
Beaches,Djursnæs,55.9450952,11.8545308
Beaches,Bork Nordstrand,55.8505723,8.2804888
Beaches,FKK,54.5788756,13.4197429
Beaches,Sibirien stranden,56.2369066,12.8142196
Beaches,Fyns Sydligste Punkt,55.0265954,10.516444
Beaches,Nymølle,56.6779796,8.7891927
Beaches,Älmeshultabadet,57.7131631,14.861241
Beaches,Westwid Nord,56.0201479,8.1293732
Beaches,Hemmet Strand,55.8763882,8.3335657
Beaches,Tange Søbad,56.3345454,9.5760012
Beaches,Kloster Surfspot,56.1058433,8.1698628
Beaches,Ellenbogenspitze,55.0459475,8.4639548
Beaches,Ålabodarnas strand,55.9379594,12.7809636
Beaches,Holmens Camping,56.0767228,9.760835
Beaches,Strandkær Strand,56.2172409,10.5842864
Beaches,FKK-Strand,54.655287,10.032715
Beaches,Bjerregård Havn,55.88044,8.1832467
Beaches,Nørhede Strand,56.3211167,8.2044724
Beaches,Sorte Bakker Strand,56.0735378,8.2692236
Beaches,Bork Sydstrand,55.8452359,8.2748777
Beaches,Rosenholm Bådelaug,56.2925721,10.395293
Beaches,Bøgehoved,55.7349882,10.0373535
Beaches,Vätterstranden,57.7821713,14.1891229
Beaches,FKK Strand Niedamm / Golsmaas,54.7603305,9.9740342
Beaches,Skullarydsbadet,57.7584431,14.9190638
Beaches,Hundbad Vårhallen,55.5802205,14.3344801
Beaches,Balgö Brygga,57.1686079,12.2107437
Beaches,Rånnavägsbadplats,57.6756338,13.490059
Beaches,Svanebäcksstranden,56.1595625,12.5646262
Beaches,Badplats Färåstjärn,57.6111534,12.028545
Beaches,Stora skärsvägen Nyhamnsläge,56.2353705,12.5352512
Beaches,Bryggan Nyhamnsläge,56.239952,12.5355012
Beaches,Badestrand,56.7776698,15.1437699
Beaches,Hinneryd badplats,56.6118333,13.6085958
Beaches,Bækskilde strand,54.9671772,10.4110798
Beaches,Sikabacken,56.7562141,14.9045878
Beaches,Bastuviken,56.1796248,15.0766936
Beaches,Grønhøj Strand,57.3277475,9.6625232
Beaches,Hostrup Strand,56.5697538,8.7398262
Beaches,Skjern Å Bad,55.9315937,8.5030433
Beaches,Østre Strand Struer,56.4833234,8.6132103
Beaches,Vadum Strand,56.6430023,8.7603888
Beaches,Livbjerggård Strand,56.4700893,8.6784635
Beaches,Näset,56.1765977,15.0722416
Beaches,Vinkelhage Strand,56.5678961,8.2961772
Beaches,Harrevig Strand,56.7032541,8.9186348
Beaches,Strandkær Strand Shelter,56.2185675,10.5848235
Beaches,Skibelund,55.4329772,9.6424696
Beaches,Strand,55.4255521,12.8397159
Beaches,Djupa Ro,56.7503968,14.9159732
Beaches,Röde Holme,57.3723533,11.9844712
Beaches,Hunde-Strand,54.6454737,10.0309669
Beaches,Furestads badplats,56.1620494,14.380549
Beaches,Gottskär - Utholmen,57.391043,12.0254173
Beaches,Rumpen,55.93180051111111,10.709935805555556
Beaches,Kyholm,55.93178081739131,10.670836013043479
Beaches,Lindholm,55.92749261388889,10.695151652777776
Beaches,Hjelm,56.133286917647055,10.800595076470588
Beaches,Hunseby Strand,54.8281902,11.543700036363637
Beaches,Nybølle Strand,54.95747965,11.24469865
Beaches,Ostseebad,54.81245779038461,9.430278478846153
Beaches,Weidefelder Strand,54.64904301951219,10.031524170731709
Beaches,Nordstrand,55.45927487608696,10.66765944347826
Beaches,Sydstranden,55.447818417647056,10.667467661764704
Beaches,Bellevue Strand,55.77757486666666,12.592524462962961
Beaches,Vedbæk Sydstrand,55.847426516,12.572114912
Beaches,Dragør Sydstrand,55.583088985365855,12.665646804878048
Beaches,Hellerup Strand,55.73305801904762,12.58224718095238
Beaches,Vallensbæk Strand - Brøndby Strand,55.61267975,12.420355967647058
Beaches,Hundige Strand - Ishøj Strand,55.602521875,12.38450735
Beaches,Olsbæk Strand,55.58760779130434,12.338180039130433
Beaches,Ølsemagle Revle,55.496114759090915,12.209770027272729
Beaches,Furesøbad,55.80350953125,12.385892625
Beaches,Jersie Strand,55.5212981625,12.22309579375
Beaches,Henne Strand,55.73416505555555,8.169678133333333
Beaches,Badestelle Lüttmoorsiel,54.56108520833334,8.870676716666667
Beaches,Skanörs norra revel nakenbad,55.43159604607843,12.840959386274507
Beaches,Enø Strand,55.172249042857146,11.65045651190476
Beaches,Strand Sandwig,54.84228383243243,9.530988191891893
Beaches,Klinten Strand,55.08751809411765,10.255468770588235
Beaches,Karlas Plads,55.0494811,10.616578466666667
Beaches,Vindebyøre strand,55.05520804722222,10.630792355555556
Beaches,Skrånbjerg,55.43742286086957,8.4415191
Beaches,Christiansminde Badestrand,55.05813975307692,10.639684674615385
Beaches,Holtbjerg Sø Badestrand,56.12737108,9.001066574285714
Beaches,Badestrand Grüner Brink,54.50884777959184,11.198275
Beaches,Følle Strand,56.29478123207547,10.42740789245283
Beaches,Ballehage Strand,56.121130828571424,10.2253989
Beaches,Tirsbæk Strand,55.708936981818184,9.632048609090909
Beaches,Strand Schaprode,54.51646765,13.163366303846152
Beaches,Ribersborgsstranden,55.60174743529412,12.961371384313724
Beaches,Hundebadestrand,54.570504383333336,13.453123333333332
Beaches,Knudhule,56.101908285,9.784082245
Beaches,Svanemølle Strand,55.72020801,12.58364599
Beaches,Vedbæk Nordstrand,55.85142486551724,12.56962094137931
Beaches,Moesgård Strand,56.08754639032258,10.248682451612904
Beaches,Østre Søbad,56.14772956666666,9.55622645
Beaches,Lyåsa beach,57.1310253,14.36443147
Beaches,Hauptstrand Glowe,54.57092816,13.463728466153846
Beaches,Tranum Strand,57.17001518888889,9.41802983888889
Beaches,Rødhus Strand,57.20796884285714,9.504951838095238
Beaches,Ejstrup Strand,57.17777414166667,9.43531815
Beaches,Åkrogen,56.2046319106383,10.284595317021276
Beaches,Lehnskov Strand,55.02688931557377,10.515478429508196
Beaches,Bratten Strand,57.516312202083334,10.471617502083332
Beaches,Rebæk Strand,55.487090475,9.5265987325
Beaches,Vestre Søbad,56.15206536521739,9.5437068
Beaches,Aggerholm,56.15330312608696,9.53641858695652
Beaches,Albuen Strand,55.70473279285714,9.580672821428573
Beaches,Palmestranden,57.46146582121212,10.540286124242424
Beaches,Kjul Strand,57.58996982954545,10.057916818939391
Beaches,Næs Badestrand,55.27280338148148,14.806788318518517
Beaches,Nymølle Strand,56.67809138333334,8.78942375
Beaches,Peder Mads Strand,55.95027883,12.53198512
Beaches,Linderum,55.28861434848485,9.715068051515152
Beaches,Bastholm,55.2841114047619,9.769150161904761
Beaches,Høll strand,55.632545975,9.74692123888889
Beaches,Hvidbjerg strand,55.63992935487805,9.744748360975608
Beaches,Espergærde Strand,55.99150035384615,12.561139638461539
Beaches,Mørkholt strand,55.649790854,9.742234642
Beaches,Bøgeskov strand,55.625529275,9.752655618333332
Beaches,Skæring Strand,56.22654038571429,10.308223471428573
Beaches,Ærøskøbing Strand,54.899098292452834,10.403738356603773
Beaches,Liseleje Strand,56.01321541089743,11.958445767948715
Beaches,Gummistranden,56.043739151851845,12.607891403703704
Beaches,Luisenbad,54.51116175,9.558905008333333
Beaches,Trössedal Badplats,57.436416442857144,13.262981642857142
Beaches,Den Sorte Strand,54.897365514634146,9.799397968292682
Beaches,Åhus Strand,55.940436,14.322518862962962
Beaches,Väbynäs Badplats,56.1593877,15.132957345454544
Beaches,Den gule strand,54.90464455882353,9.7859603
Beaches,Adela Udde,57.6428444,14.7016301375
Beaches,Kniepsand,54.657619373010384,8.345697220069205
Beaches,Haväng,55.718449863207546,14.199434868867923
Beaches,Botofte Strand,55.000214774545455,10.895054149090909
Beaches,Dragør Strand,55.58786658823529,12.675339158823528
Beaches,Rødvig Strand - Krostranden,55.25462391451613,12.385310887096773
Beaches,Gråstensvej Strand,55.98487966511628,11.883688788372092
Beaches,Trekanten,55.967570753846154,11.846984823076925
Beaches,Dybbøl Strand,54.90449005384615,9.779599676923077
Beaches,Fria Bad,56.058073184,12.680948308
Beaches,Tropical Beach,56.04425142666666,12.686674646666667
Beaches,Tinkarpsbadet,56.07450958333334,12.665824711111112
Beaches,Pålsjöbaden,56.06493811470588,12.677103297058824
Beaches,Vikingstrand,56.071345731645565,12.669369402531643
Beaches,Hullehavn Strand,55.131082570588234,15.152490223529412
Beaches,Rungsted Strand,55.88259048571429,12.546220285714284
Beaches,Vemmetofte Strand,55.237237425,12.24292380625
Beaches,Rødvig Sand Strand,55.25343839166666,12.368345375
Beaches,Bøgeskov Strand,55.36960071052631,12.41222334736842
Beaches,Magleby Strand,55.39823556571429,12.344200914285715
Beaches,Strøby Ladeplads Strand,55.40072118644068,12.32114600338983
Beaches,Køge Sydstrand,55.448161735,12.19834958
Beaches,Skodsborg Strand - Struckmannparken,55.830325806666664,12.574693666666667
Beaches,Stranden ved Lokeshøj,55.83899178695652,12.574405473913044
Beaches,Babylone Strand,55.97558884901961,12.547310825490197
Beaches,Bjerre Strand,55.957401366666666,12.537112455555556
Beaches,Stranden ved Ida Tesdorpfs Vej,55.9608606,12.540135371428573
Beaches,Snekkersten Strand,56.005368975,12.580718381578947
Beaches,Julebæk Strand,56.05977443023256,12.574593920930232
Beaches,Stranden ved Hornbæk Plantage,56.09165261538462,12.488525147435896
Beaches,Dronningmølle Strand,56.100323670370365,12.393026448148149
Beaches,Gilleleje Strand,56.1284232,12.305846895
Beaches,Stængehus Strand,56.03962352727273,12.02645146060606
Beaches,Stængehus - Melby Strand,56.025396472,11.994777864
Beaches,Tisvildeleje Strand,56.05434442441861,12.054174097674418
Beaches,Vigen Strandpark,55.6737067,12.076707746666665
Beaches,Ejby Strand,55.695966992857144,11.837243171428572
Beaches,Herslev Strand,55.677780175,11.9864763
Beaches,Borrevejle Strandpark,55.654291792857144,11.938535142857141
Beaches,Kisserup Strand,55.7931044576923,11.72446913076923
Beaches,Gudmindrup Strand,55.89650909638554,11.52567960120482
Beaches,Tengslemark Strand,55.92036473076923,11.525499515384617
Beaches,Lumsaas Sønderstrand,55.925408315384615,11.523558684615384
Beaches,Vesterlyng Strand,55.73668232307692,11.278699812820513
Beaches,Strand Hagab,54.56933658888889,9.764361644444445
Beaches,Flickornas badplats,57.19865484,14.34105526
Beaches,Orlunden Beach,56.252421842857146,14.619965314285714
Beaches,Lomudden,57.37274746071429,14.279877403571428
Beaches,Flansbæk Strand,55.62551927391304,9.795472534782608
Beaches,Helnæs Strand,55.13307524363636,10.041701769090908
Beaches,Marbæk Strandpark,55.81931582333333,12.065570206666665
Beaches,Skolestranden,55.98853375625,12.5578342875
Beaches,Bäckerstrand,54.506352033333336,9.600324444444444
Beaches,Hesnæs_Strand,54.81401076666666,12.129048704761905
Beaches,Strandänges Badplats,56.06761215,14.453349372222222
Beaches,Kallebyer Strand,54.80609853529412,9.729559164705881
Beaches,Schutzzone 1,55.04697306511628,8.405591251162791
Beaches,Badesee Wanderup,54.70286983571429,9.355398614285713
Beaches,Flyvesandet,55.621126317910445,10.297460520895521
Beaches,Kobæk Strand,55.260037683018865,11.244466983018867
Beaches,Badestelle Gunneby,54.57546112,9.7769906
Beaches,Rågångsnabben,56.033994390909086,14.5579496
Beaches,Bogens Strand,56.20963411029412,10.57812551617647
Beaches,Trylleskoven strand,55.55049328,12.248949806666666
Beaches,Solrød Strand,55.53897575789473,12.236320331578948
Beaches,Knud Strand,55.319433254032255,9.639558025
Beaches,Kidholme,55.51176542152778,9.594500794444444
Beaches,Hullehavn,55.131004835,15.153313075
Beaches,Lyngså Strand,57.2544388507353,10.546085175735294
Beaches,Strandby Strand,57.48044299587629,10.515798470103093
Beaches,Frederikskilde Strand,55.375871144,11.545301504
Beaches,Ballsjöns badplats,57.6713181125,12.5267805
Beaches,Långanässjöbaden,57.63703169,14.94986504
Beaches,Hallingelille Strand,55.494824558333335,11.818353791666667
Beaches,Halk Strand,55.18381110571429,9.657159957142856
Beaches,Badestrand Brodersby-Burg,54.52607356,9.6994917
Beaches,Asklanda,57.813227932352945,12.997809167647057
Beaches,Nabben,57.804936677777775,12.9837329
Beaches,Knähakenbadet - naturistbad,56.00563757,12.71888973
Beaches,Badestrand Dollerupholz,54.80933923333333,9.708488325
Beaches,Vang Pier,55.245172425,14.72950425
Beaches,Skelby,54.63289449310345,11.888033886206896
Beaches,Vandsportsområde,56.47911315416666,8.721496379166668
Beaches,Lursjöbadet,56.27098015833334,13.8932998
Beaches,Østerstrand,55.56513335625,9.769105946875
Beaches,Badeanstalten,54.943168475,9.848378225
Beaches,Ibæk Strand,55.692649942857145,9.610562357142856
Beaches,Bua strand,57.56902921818182,12.660305409090908
Beaches,Vemmingbund,54.89815208727273,9.702905056363637
Beaches,Ekegårdens strand,57.244948625,12.5555530875
Beaches,Vængesgård Strand,54.964198565957446,12.357108863829788
Beaches,Stoeredal,57.30688167831325,10.991735914457832
Beaches,Hårbølle Strand,54.880342209375,12.173091498046876
Beaches,Sjælsø strand ved Eskemose skov,55.85993594761905,12.443029771428572
Beaches,Stauning Strand,55.95210157142857,8.365369314285713
Beaches,Skaven Strand,55.89195235,8.35654959375
Beaches,Norgaardholz,54.78901229787233,9.797854382978725
Beaches,Badplats Fegen,57.11610421666666,13.043695016666666
Beaches,Bøtø strand,54.692534929032256,11.98173340860215
Beaches,Christiania Beach,55.67945386,12.60936856
Beaches,Assens Næs Strand,55.26785213,9.881373972
Beaches,Bogense Marina Strand,55.56576720454546,10.075675243181818
Beaches,Revhaken,55.9081635875,14.302777670833333
Beaches,Hejsager Strand,55.1933342,9.604508642857143
Beaches,Kelstrup Strand,55.191283474358976,9.583513082051281
Beaches,Nivå Strand,55.936879985365856,12.527048826829269
Beaches,Sdr. Alslev Strand,54.75550606923077,12.039566465384617
Beaches,Ulslev strand,54.7358491326923,12.02703505
Beaches,Badplats,57.14335926,14.29447378
Beaches,Drejby Strand - Kerneland,54.866841053191486,10.010303977659573
Beaches,Elsehoved Strand,55.105507496610166,10.772308286440676
Beaches,Vassviken,57.8010676125,13.00671125
Beaches,Klintholm Havn Strand,54.95107015576923,12.476125492307691
Beaches,Sparrsjön badplats,56.2455963,13.72539816
Beaches,Havnevigen,55.654501965,12.566054915
Beaches,Femmøller Strand,56.22692196,10.606641333333332
Beaches,Vätterstranden Väst,57.78684494545455,14.154651918181818
Beaches,FKK-Strand Goting,54.688343106976745,8.459255290697673
Beaches,Kvickbadet,56.1971483962963,12.554020088888889
Beaches,Høl,55.147584433333336,15.1049249
Beaches,Badestelle Holmer Siel,54.531707677777774,8.873012033333334
Beaches,Västerkvarnsbadet,57.306231333333336,14.534421266666666
Beaches,Åsø Strand,55.0060886923077,10.818794169230769
Beaches,Glumsø Badestrand,55.352307442857146,11.688309385714284
Beaches,Stengade Strand,54.9585682375,10.85036339375
Beaches,Hvidovre strand,55.627133501470595,12.501843788235295
Beaches,Snøde Hesselbjerg Strand,55.069082707142854,10.9272414
Beaches,Dokken City Beach,55.46173231,8.44379541
Beaches,Nationalpark,55.026946496428565,8.43205924642857
Beaches,Østre Strand,56.4834302,8.612790286
Beaches,Ore Strand,55.0058672576087,11.872226644565217
Beaches,Hunde Strand,54.717879957142856,9.989118042857143
Beaches,Hundestrand,54.76298336111111,9.971466683333333
Beaches,Kramnitze Strand,54.70487331020408,11.254837083673468
Beaches,Östra Stranden,55.36501441236559,13.195335719354839
Beaches,Dalabadet,55.36190553013699,13.210369160273972
Beaches,Västersjöns badplats,57.76420638333334,14.0786748
Beaches,Køge Nordstrand,55.476474745454546,12.198472904545454
Beaches,Gåsehage Strand,56.14728286129032,10.678395603225805
Beaches,Helletofte Strand,55.02651612307692,10.834509938461538
Beaches,Udbyhøj Strand,56.61012264761905,10.301173457142855
Beaches,Grenaa Strand,56.37683225757576,10.916816729545454
Beaches,Hundebereich,54.764189244444445,9.970216966666667
Beaches,Hjärtasjöbadet,56.40029329285714,14.282728157142856
Beaches,Skälsnäs Badplats,56.97058911333334,14.741587213333332
Beaches,Hornbæk Hundestrand,56.0929459,12.464906164285715
Beaches,Råbylille Strand,54.96539362222222,12.385282697222221
Beaches,"Såne ""Bellevue""",55.89493548,11.118239653333331
Beaches,Hundige Hundestrand,55.592147825,12.3570081125
Beaches,sandstrand,57.65660173,12.19920281
Beaches,Sønder Aaby Strand,55.35053855370371,9.842726277777777
Beaches,Sandager Næs Strand,55.3337655,9.877440144186046
Beaches,Sønderby Strand,55.72901994,12.034635146666666
Beaches,Husmoderstranden,57.58977228055555,9.948388805555556
Beaches,Hjerpsted Strand,55.02739707333333,8.63707244
Beaches,Gribtørven,56.64712652222222,9.839698855555557
Beaches,Sandskredet,56.64684007142857,9.826124657142856
Beaches,Sildeborghage,56.64379383076923,9.81444476153846
Beaches,Teglgårdssøens badestrand,55.9248027,12.31421834
Beaches,Revkrogen Strand,55.34794243,11.10159754
Beaches,Granskoven Strand,55.342892758333335,11.114620945833332
Beaches,Ajstrup Strand,56.04035610526316,10.270842863157894
Beaches,Skovsgårdland,56.6395021,9.85097688
Beaches,Lille Skovgård Hage,56.646051441176475,9.845647188235294
Beaches,Houstrup Strand,55.7601340875,8.1763422125
Beaches,Adsbøl Strand,54.93515557,9.62694956
Beaches,Dalleren,56.64599531538462,9.820448953846153
Beaches,Fyrbøjen,56.6464156125,9.8309391625
Beaches,Skåstrup Strand,55.53916004782609,10.00000535652174
Beaches,Fjellerup badestrand,56.51784368333334,10.58814304
Beaches,Mullerup Strand,55.4965804625,11.17400523125
Beaches,Husby Strand,55.37932637222222,9.83035883888889
Beaches,Annekjeld,56.63951911666666,9.8313284
Beaches,Ulvshale Strand,55.03796336764706,12.285017361764703
Beaches,Jerup Strand,57.54285516521739,10.441333750724636
Beaches,Hejlsminde Strand,55.3629543116279,9.602173511627907
Beaches,Lottas strand,56.14186847727273,12.57594844090909
Beaches,Drachenstrand,54.680359554545454,8.542026336363637
Beaches,Raucherstrand,54.68080718,8.53770858
Beaches,Näsetbadet,57.61596568076923,11.900664653846151
Beaches,Badestrand Dagebüll,54.727077711111114,8.69256638888889
Beaches,Südwesthörn,54.79592254482758,8.659963220689654
Beaches,Beach Dagebüll,54.72815038571429,8.692365485714287
Beaches,Tarup-Davinde Hundestrand,55.3314557625,10.527410325
Beaches,Fågelforsdammens Badplats,57.45029855,14.104826083333332
Beaches,Hawaiistranden,57.557208975,14.23136445
Beaches,Boeslum Strand,56.20562066153846,10.733956346153846
Beaches,Flovt Strand,55.229857187878785,9.702985133333334
Beaches,Dyngby Strand,55.96190283023256,10.264168913953489
Beaches,Ålbæk Strand,56.624781081355934,8.729850415254237
Beaches,Lystrup Strand,56.520894536111115,10.461011680555556
Beaches,Næsby Strand,54.746871831527095,11.059764416256156
Beaches,Dråby Strand,56.21756404,10.73821156
Beaches,Vibæk Strand,56.21901194,10.669023546666667
Beaches,Fuglsø Strand,56.18170748461539,10.543310846153846
Beaches,Ceresstranden,55.320194304761905,11.152132757142857
Beaches,Egå Strand,56.21394092,10.29158934
Beaches,Laxasands badplats,56.42894945,14.825355175
Beaches,Kidholm Strand,55.511751999510025,9.594500975951354
Beaches,Välornas badplats,57.321626252083334,13.727803809375
Beaches,Karlslunde Strand,55.552678477407405,12.254839172592591
Beaches,Sædding Strand,55.49573119577295,8.397722794565217
Beaches,Ursöbadet,56.629848495,14.8595412125
Beaches,Sandgårdslandet,56.626039354166664,14.95507061875
Beaches,Blokhus Strand,57.26178134585271,9.58573242003876
Beaches,Tannis Strand,57.602858900160385,10.20686222967121
Beaches,Sandersvig,55.34952867080048,9.626290754603202
Beaches,Hornbæk Strand,56.09412881783682,12.434127211764704
Beaches,Bosserne,55.93510035808081,10.782860650757575
Beaches,bakkebølle strand,54.97508956071429,11.982207366165412
Beaches,Skrea Strand,56.88239281917857,12.504237005833332
Beaches,Grötviks pir,56.640963033333335,12.780656291666666
Beaches,Västra stranden,56.663336925763886,12.833031025625
Beaches,Ringsegårds strand,56.86812497263158,12.53299224236842
Beaches,Laholmsbuktens strand,56.49574183766136,12.92533775152448
Beaches,Barnens badstrand,57.10853188541667,12.2415720875
Beaches,Tylösand,56.65375747281979,12.73071324640056
Beaches,Frösakull,56.663806092711944,12.727044630918428
Beaches,Askimsbadet,57.6253571162594,11.926438418796993
Beaches,Fiskebäcksbadet,57.64841658571429,11.848680121428572
Beaches,Hovåsbadet,57.61778685560606,11.922518222424243
Beaches,Rörviksbadet,57.62991548916666,11.881334126666665
Beaches,Nässja badplats,56.910978095,13.54179832
Beaches,Ibro badplats,56.921008891111114,13.33515187
Beaches,Vita bandet,56.650601007950435,12.798526764856584
Beaches,Orsnäs,57.41900489,12.04199614
Beaches,Stora Enens strand,57.4031420974359,12.02816347051282
Beaches,Olofsbo strand,56.91702347557355,12.386364737786774
Beaches,Osudden badplats,57.16141179243698,14.051344759593835
Beaches,Bergsjöbadet,57.74961363333333,12.0643314125
Beaches,Härlanda tjärns badplats,57.710023324352946,12.054128553235294
Beaches,Mjälen,56.901564209722224,13.779112766666666
Beaches,Smörvattnets badplats,57.779469475,12.105384475
Beaches,Mellby badplats,57.55568296,15.11358332
Beaches,Diö badplats,56.6465094275,14.220074434166666
Beaches,Midingsbråte Badplats,56.39555131,14.830811325
Beaches,Odensjö Badplats,56.8651159625,13.6186867375
Beaches,Movänta,57.656467555357146,15.123112642857143
Beaches,Solitüde Strand,54.82265690577778,9.486706486
Beaches,Öjaby badplats,56.90023132,14.740385351666665
Beaches,Saltum Strand,57.29085215,9.622694728125
Beaches,Amager Strandpark,55.65714588558776,12.640909936666667
Beaches,Ekelund,57.47101846048913,12.688988365199275
Beaches,Grønnestrand,57.143922390441176,9.270964963308824
Beaches,Hundbad,57.19165247222222,14.048392958333332
Beaches,Vikens Havsbad,56.151093319909506,12.56746641199095
Beaches,Boviks Bad,57.684363840476195,12.860537385714284
Beaches,Kastrup Søbad,55.645733657692304,12.648168519230769
Beaches,Gröna vik badplats,57.653904705,11.7816741325
Beaches,Furusjöns Badplats,57.649319133333336,12.860126441666665
Beaches,Storsjöns Badplats,57.646047394444444,12.844143888888889
Beaches,Lovsjöbadet,57.66871621602564,14.187831058141024
